{"metadata":{"request":"\/ws\/geoserve\/places.json?latitude=45.1&longitude=-70.1&type=event","submitted":"2015-09-21T20:02:46+00:00","types":["event"],"version":"0.1.0"},"event":{"type":"FeatureCollection","count":5,"features":[{"type":"Feature","id":4960263,"geometry":{"type":"Point","coordinates":[-70.21201,45.07783,254]},"properties":{"admin1_code":"ME","admin1_name":"Maine","azimuth":254.4,"country_code":"US","country_name":"United States","distance":9.156,"feature_class":"P","feature_code":"PPL","name":"Carrabassett","population":0}},{"type":"Feature","id":4982236,"geometry":{"type":"Point","coordinates":[-69.63171,44.55201,33]},"properties":{"admin1_code":"ME","admin1_name":"Maine","azimuth":148.5,"country_code":"US","country_name":"United States","distance":71.274,"feature_class":"P","feature_code":"PPL","name":"Waterville","population":15722}},{"type":"Feature","id":4957003,"geometry":{"type":"Point","coordinates":[-69.77949,44.31062,38]},"properties":{"admin1_code":"ME","admin1_name":"Maine","azimuth":163.7,"country_code":"US","country_name":"United States","distance":91.324,"feature_class":"P","feature_code":"PPLA","name":"Augusta","population":19136}},{"type":"Feature","id":4957280,"geometry":{"type":"Point","coordinates":[-68.77781,44.80118,36]},"properties":{"admin1_code":"ME","admin1_name":"Maine","azimuth":107.2,"country_code":"US","country_name":"United States","distance":109.496,"feature_class":"P","feature_code":"PPLA2","name":"Bangor","population":33039}},{"type":"Feature","id":5083330,"geometry":{"type":"Point","coordinates":[-71.18508,44.46867,311]},"properties":{"admin1_code":"NH","admin1_name":"New Hampshire","azimuth":231.1,"country_code":"US","country_name":"United States","distance":110.889,"feature_class":"P","feature_code":"PPL","name":"Berlin","population":10051}}]}}